{
"type": "FeatureCollection",
"crs": { "type": "name", "properties": { "name": "urn:ogc:def:crs:OGC:1.3:CRS84" } },

"features": [
{ "type": "Feature", "properties": { "OBJECTID": 172, "ID": "10417213", "Asset": "Hospital", "Name": "SHEPHERD CENTER", "TELEPHONE": "404-352-2020", "ADDRESS": "2020 PEACHTREE ROAD NORTHWEST", "ADDRESS2": null, "CITY": "ATLANTA", "STATE": "GA", "ZIP": "30309", "ZIPP4": "1426", "COUNTY": "FULTON", "FIPS": "13121", "DIRECTIONS": "LOCATED ON THE W SIDE OF PEACHTREE RD NW BETWEEN PEACHTREE VALLY RD NW AND BROOKWOOD VALLEY CIR NE.", "EMERGTITLE": null, "EMERGTEL": null, "EMERGEXT": null, "CONTDATE": "2012-01-18T00:00:00.000Z", "CONTHOW": "PHONE", "GEODATE": "2008-01-24T00:00:00.000Z", "GEOHOW": "MANUAL", "NAICSCODE": "622310", "NAICSDESCR": "REHABILITATION HOSPITALS (EXCEPT ALCOHOLISM, DRUG ADDICTION)", "GEOLINKID": "22691933", "X": -84.394390, "Y": 33.810181, "ST_VENDOR": "NAVTEQ", "ST_VERSION": "2006Q4", "GEOPREC": "ONENTITY", "PHONELOC": "YES", "QC_QA": "TGS", "STATE_ID": "6473", "GlobalID": "{E3F90597-0954-4BCC-AAD8-E44946C85C96}", "created_us": "SDE", "created_da": "2015-12-30T22:18:28.000Z", "last_edite": "SDE", "last_edi_1": "2015-12-30T22:18:28.000Z" }, "geometry": { "type": "Point", "coordinates": [ -84.394473151002842, 33.812937162004502 ] } },
{ "type": "Feature", "properties": { "OBJECTID": 173, "ID": "10417063", "Asset": "Hospital", "Name": "CHILDREN'S HEALTHCARE OF ATLANTA AT HUGHES SPALDING", "TELEPHONE": "404-785-9500", "ADDRESS": "35 JESSE HILL JUNIOR DRIVE SOUTHEAST", "ADDRESS2": null, "CITY": "ATLANTA", "STATE": "GA", "ZIP": "30303", "ZIPP4": "3032", "COUNTY": "FULTON", "FIPS": "13121", "DIRECTIONS": "WEST CORNER OF JESSE HILL JR DR SE AND COCA COLA PL SE", "EMERGTITLE": null, "EMERGTEL": null, "EMERGEXT": null, "CONTDATE": "2012-01-18T00:00:00.000Z", "CONTHOW": "PHONE", "GEODATE": "2008-01-28T00:00:00.000Z", "GEOHOW": "MANUAL", "NAICSCODE": "622110", "NAICSDESCR": "CHILDREN'S HOSPITALS, GENERAL", "GEOLINKID": "22698831", "X": -84.381733, "Y": 33.753623, "ST_VENDOR": "NAVTEQ", "ST_VERSION": "2006Q4", "GEOPREC": "ONENTITY", "PHONELOC": "YES", "QC_QA": "TGS", "STATE_ID": "6928", "GlobalID": "{9CFB3F04-D6AA-4678-8BAF-5F15224CDCBB}", "created_us": "SDE", "created_da": "2015-12-30T22:18:28.000Z", "last_edite": "SDE", "last_edi_1": "2015-12-30T22:18:28.000Z" }, "geometry": { "type": "Point", "coordinates": [ -84.381815858002881, 33.756379253004503 ] } },
{ "type": "Feature", "properties": { "OBJECTID": 174, "ID": "10417233", "Asset": "Hospital", "Name": "GRADY MEMORIAL HOSPITAL", "TELEPHONE": "404-616-1000", "ADDRESS": "80 JESSE HILL JUNIOR DRIVE SOUTHEAST", "ADDRESS2": null, "CITY": "ATLANTA", "STATE": "GA", "ZIP": "30303", "ZIPP4": "3031", "COUNTY": "FULTON", "FIPS": "13121", "DIRECTIONS": "SOUTH CORNER OF BUTLER ST SE AND ARMSTRONG ST SE", "EMERGTITLE": null, "EMERGTEL": null, "EMERGEXT": null, "CONTDATE": "2012-01-18T00:00:00.000Z", "CONTHOW": "PHONE", "GEODATE": "2008-01-28T00:00:00.000Z", "GEOHOW": "MANUAL", "NAICSCODE": "622110", "NAICSDESCR": "HOSPITALS, GENERAL MEDICAL AND SURGICAL", "GEOLINKID": "22699041", "X": -84.381952, "Y": 33.752559, "ST_VENDOR": "NAVTEQ", "ST_VERSION": "2006Q4", "GEOPREC": "ONENTITY", "PHONELOC": "YES", "QC_QA": "TGS", "STATE_ID": "6929", "GlobalID": "{DC1B4E2C-53C7-4D3D-95FC-CBB055085EE2}", "created_us": "SDE", "created_da": "2015-12-30T22:18:28.000Z", "last_edite": "SDE", "last_edi_1": "2015-12-30T22:18:28.000Z" }, "geometry": { "type": "Point", "coordinates": [ -84.382052641002858, 33.754604095004531 ] } },
{ "type": "Feature", "properties": { "OBJECTID": 175, "ID": "10417210", "Asset": "Hospital", "Name": "SUMMITRIDGE PSYCHIATRIC HOSPITAL", "TELEPHONE": "770-822-2200", "ADDRESS": "250 SCENIC HIGHWAY", "ADDRESS2": null, "CITY": "LAWRENCEVILLE", "STATE": "GA", "ZIP": "30045", "ZIPP4": "5675", "COUNTY": "GWINNETT", "FIPS": "13135", "DIRECTIONS": "SOUTHEAST SIDE OF SCENIC HWY BETWEEN GWINNETT DR SW AND CONSTITUTION BLVD SW.", "EMERGTITLE": null, "EMERGTEL": null, "EMERGEXT": null, "CONTDATE": "2008-01-22T00:00:00.000Z", "CONTHOW": "PHONE", "GEODATE": "2008-01-22T00:00:00.000Z", "GEOHOW": "MANUAL", "NAICSCODE": "622210", "NAICSDESCR": "HOSPITALS, PSYCHIATRIC (EXCEPT CONVALESCENT)", "GEOLINKID": "22803242", "X": -83.989642, "Y": 33.942378, "ST_VENDOR": "NAVTEQ", "ST_VERSION": "2006Q4", "GEOPREC": "ONENTITY", "PHONELOC": "YES", "QC_QA": "TGS", "STATE_ID": "6464", "GlobalID": "{84BDB715-97D3-4E67-A969-1D60C81D929B}", "created_us": "SDE", "created_da": "2015-12-30T22:18:28.000Z", "last_edite": "SDE", "last_edi_1": "2015-12-30T22:18:28.000Z" }, "geometry": { "type": "Point", "coordinates": [ -83.989642001002821, 33.942377973004568 ] } },
{ "type": "Feature", "properties": { "OBJECTID": 176, "ID": "10417065", "Asset": "Hospital", "Name": "SAINT JOSEPH'S HOSPITAL OF ATLANTA", "TELEPHONE": "404-851-7120", "ADDRESS": "5665 PEACHTREE DUNWOODY ROAD", "ADDRESS2": null, "CITY": "ATLANTA", "STATE": "GA", "ZIP": "30342", "ZIPP4": "1701", "COUNTY": "FULTON", "FIPS": "13121", "DIRECTIONS": "EAST OF PEACHTREE DUNWOODY RD BETWEEN JOHNSON FERRY RD NE AND LAKE HEARN DR NE", "EMERGTITLE": null, "EMERGTEL": null, "EMERGEXT": null, "CONTDATE": "2012-01-18T00:00:00.000Z", "CONTHOW": "PHONE", "GEODATE": "2008-01-22T00:00:00.000Z", "GEOHOW": "MANUAL", "NAICSCODE": "622110", "NAICSDESCR": "HOSPITALS, GENERAL MEDICAL AND SURGICAL", "GEOLINKID": "133502876", "X": -84.349791, "Y": 33.908407, "ST_VENDOR": "NAVTEQ", "ST_VERSION": "2006Q4", "GEOPREC": "ONENTITY", "PHONELOC": "YES", "QC_QA": "TGS", "STATE_ID": "6924", "GlobalID": "{D9C51F5A-35A6-4ABB-9E56-D0490C0D3FE9}", "created_us": "SDE", "created_da": "2015-12-30T22:18:28.000Z", "last_edite": "SDE", "last_edi_1": "2015-12-30T22:18:28.000Z" }, "geometry": { "type": "Point", "coordinates": [ -84.349872626002863, 33.91116341300453 ] } },
{ "type": "Feature", "properties": { "OBJECTID": 177, "ID": "10416868", "Asset": "Hospital", "Name": "PEACHFORD BEHAVIORAL HEALTH SYSTEM OF ATLANTA", "TELEPHONE": "770-455-3200", "ADDRESS": "2151 PEACHFORD ROAD NORTHEAST", "ADDRESS2": null, "CITY": "ATLANTA", "STATE": "GA", "ZIP": "30338", "ZIPP4": "6534", "COUNTY": "DEKALB", "FIPS": "13089", "DIRECTIONS": "NORTHWEST SIDE OF PEACHFORD RD. BETWEEN PINERIDGE CIR AND BARCLAY DR.", "EMERGTITLE": null, "EMERGTEL": null, "EMERGEXT": null, "CONTDATE": "2012-01-10T00:00:00.000Z", "CONTHOW": "PHONE", "GEODATE": "2008-01-22T00:00:00.000Z", "GEOHOW": "MANUAL", "NAICSCODE": "622210", "NAICSDESCR": "HOSPITALS, MENTAL (EXCEPT MENTAL RETARDATION)", "GEOLINKID": "22726009", "X": -84.298354, "Y": 33.927533, "ST_VENDOR": "NAVTEQ", "ST_VERSION": "2006Q4", "GEOPREC": "BLOCKFACE", "PHONELOC": "YES", "QC_QA": "TGS", "STATE_ID": null, "GlobalID": "{8D256BB2-A358-4793-9581-EEB9ABECED28}", "created_us": "SDE", "created_da": "2015-12-30T22:18:28.000Z", "last_edite": "SDE", "last_edi_1": "2015-12-30T22:18:28.000Z" }, "geometry": { "type": "Point", "coordinates": [ -84.298521074002849, 33.927518667004541 ] } },
{ "type": "Feature", "properties": { "OBJECTID": 178, "ID": "10416867", "Asset": "Hospital", "Name": "NORTHSIDE HOSPITAL - CHEROKEE", "TELEPHONE": "770-720-5100", "ADDRESS": "201 HOSPITAL ROAD", "ADDRESS2": null, "CITY": "CANTON", "STATE": "GA", "ZIP": "30114", "ZIPP4": "2408", "COUNTY": "CHEROKEE", "FIPS": "13057", "DIRECTIONS": "LOCATED W SIDE OF HOSPITAL DR, BETWEEN HOSPITAL RD AND CANTON HWY.", "EMERGTITLE": null, "EMERGTEL": null, "EMERGEXT": null, "CONTDATE": "2011-12-23T00:00:00.000Z", "CONTHOW": "PHONE", "GEODATE": "2008-01-25T00:00:00.000Z", "GEOHOW": "MANUAL", "NAICSCODE": "622110", "NAICSDESCR": "HOSPITALS, GENERAL MEDICAL AND SURGICAL", "GEOLINKID": "133507028", "X": -84.490301, "Y": 34.245389, "ST_VENDOR": "NAVTEQ", "ST_VERSION": "2006Q4", "GEOPREC": "ONENTITY", "PHONELOC": "YES", "QC_QA": "TGS", "STATE_ID": null, "GlobalID": "{F9B61745-F04E-4114-8AED-EB32A8A2B095}", "created_us": "SDE", "created_da": "2015-12-30T22:18:28.000Z", "last_edite": "SDE", "last_edi_1": "2015-12-30T22:18:28.000Z" }, "geometry": { "type": "Point", "coordinates": [ -84.49030094400284, 34.245389216004497 ] } },
{ "type": "Feature", "properties": { "OBJECTID": 179, "ID": "10417239", "Asset": "Hospital", "Name": "EMORY UNIVERSITY HOSPITAL", "TELEPHONE": "404-712-2000", "ADDRESS": "1364 CLIFTON ROAD NORTHEAST", "ADDRESS2": null, "CITY": "ATLANTA", "STATE": "GA", "ZIP": "30322", "ZIPP4": "1061", "COUNTY": "DEKALB", "FIPS": "13089", "DIRECTIONS": "LOCATED ON THE W SIDE OF CLIFTON ROAD NE 0.02 MILES N OF LOWERGATE DR NE.", "EMERGTITLE": null, "EMERGTEL": null, "EMERGEXT": null, "CONTDATE": "2012-01-10T00:00:00.000Z", "CONTHOW": "PHONE", "GEODATE": "2008-01-24T00:00:00.000Z", "GEOHOW": "MANUAL", "NAICSCODE": "622110", "NAICSDESCR": "HOSPITALS, GENERAL MEDICAL AND SURGICAL", "GEOLINKID": "17037586", "X": -84.322139, "Y": 33.792165, "ST_VENDOR": "NAVTEQ", "ST_VERSION": "2006Q4", "GEOPREC": "ONENTITY", "PHONELOC": "YES", "QC_QA": "TGS", "STATE_ID": "6936", "GlobalID": "{2337F75E-351D-4679-80E5-3DD61C4BB042}", "created_us": "SDE", "created_da": "2015-12-30T22:18:28.000Z", "last_edite": "SDE", "last_edi_1": "2015-12-30T22:18:28.000Z" }, "geometry": { "type": "Point", "coordinates": [ -84.322139445002833, 33.792164732004544 ] } },
{ "type": "Feature", "properties": { "OBJECTID": 180, "ID": "10416880", "Asset": "Hospital", "Name": "WELLSTAR COBB HOSPITAL", "TELEPHONE": "770-732-4000", "ADDRESS": "3950 AUSTELL ROAD", "ADDRESS2": null, "CITY": "AUSTELL", "STATE": "GA", "ZIP": "30106", "ZIPP4": "1121", "COUNTY": "COBB", "FIPS": "13067", "DIRECTIONS": "LOCATED ON THE W SIDE OF AUSTELL ROAD SW 0.25 MILES N OF EAST WEST CONN SW.", "EMERGTITLE": null, "EMERGTEL": null, "EMERGEXT": null, "CONTDATE": "2012-01-04T00:00:00.000Z", "CONTHOW": "PHONE", "GEODATE": "2008-01-22T00:00:00.000Z", "GEOHOW": "MANUAL", "NAICSCODE": "622110", "NAICSDESCR": "HOSPITALS, GENERAL MEDICAL AND SURGICAL", "GEOLINKID": "22687912", "X": -84.604717, "Y": 33.857161, "ST_VENDOR": "NAVTEQ", "ST_VERSION": "2006Q4", "GEOPREC": "ONENTITY", "PHONELOC": "YES", "QC_QA": "TGS", "STATE_ID": null, "GlobalID": "{C1DBA030-B348-4B1B-A8AC-A227F074AD18}", "created_us": "SDE", "created_da": "2015-12-30T22:18:28.000Z", "last_edite": "SDE", "last_edi_1": "2015-12-30T22:18:28.000Z" }, "geometry": { "type": "Point", "coordinates": [ -84.604717330002885, 33.857161425004541 ] } },
{ "type": "Feature", "properties": { "OBJECTID": 181, "ID": "10417209", "Asset": "Hospital", "Name": "HENRY MEDICAL CENTER", "TELEPHONE": "678-604-1000", "ADDRESS": "1133 EAGLES LANDING PARKWAY", "ADDRESS2": null, "CITY": "STOCKBRIDGE", "STATE": "GA", "ZIP": "30281", "ZIPP4": "5085", "COUNTY": "HENRY", "FIPS": "13151", "DIRECTIONS": "LOCATED ON THE NW SIDE OF EAGLES LANDING PKY BETWEEN EAGLE SPRING DR AND HOSPITAL DR", "EMERGTITLE": null, "EMERGTEL": null, "EMERGEXT": null, "CONTDATE": "2008-01-22T00:00:00.000Z", "CONTHOW": "PHONE", "GEODATE": "2008-01-28T00:00:00.000Z", "GEOHOW": "MANUAL", "NAICSCODE": "622110", "NAICSDESCR": "HOSPITALS, GENERAL MEDICAL AND SURGICAL", "GEOLINKID": "127198850", "X": -84.227424, "Y": 33.510918, "ST_VENDOR": "NAVTEQ", "ST_VERSION": "2006Q4", "GEOPREC": "ONENTITY", "PHONELOC": "YES", "QC_QA": "TGS", "STATE_ID": "6463", "GlobalID": "{0B6192AB-52B1-457A-B83F-40AB10C9DB75}", "created_us": "SDE", "created_da": "2015-12-30T22:18:28.000Z", "last_edite": "SDE", "last_edi_1": "2015-12-30T22:18:28.000Z" }, "geometry": { "type": "Point", "coordinates": [ -84.225138677002832, 33.501466068004596 ] } },
{ "type": "Feature", "properties": { "OBJECTID": 182, "ID": "10416835", "Asset": "Hospital", "Name": "ANCHOR HOSPITAL", "TELEPHONE": "770-991-6044", "ADDRESS": "5454 YORKTOWNE DRIVE", "ADDRESS2": null, "CITY": "ATLANTA", "STATE": "GA", "ZIP": "30349", "ZIPP4": "5317", "COUNTY": "CLAYTON", "FIPS": "13063", "DIRECTIONS": "LOCATED ON THE SE END OF YORKTOWNE DRIVE 0.26 MILES S OF YORKTOWNE CIR.", "EMERGTITLE": null, "EMERGTEL": null, "EMERGEXT": null, "CONTDATE": "2011-12-27T00:00:00.000Z", "CONTHOW": "PHONE", "GEODATE": "2008-01-22T00:00:00.000Z", "GEOHOW": "MANUAL", "NAICSCODE": "622110", "NAICSDESCR": "HOSPITALS, GENERAL MEDICAL AND SURGICAL", "GEOLINKID": "22735040", "X": -84.452294, "Y": 33.606817, "ST_VENDOR": "NAVTEQ", "ST_VERSION": "2006Q4", "GEOPREC": "ONENTITY", "PHONELOC": "YES", "QC_QA": "TGS", "STATE_ID": null, "GlobalID": "{CD74CFBD-3A42-4A1C-A50C-1FF659CCC207}", "created_us": "SDE", "created_da": "2015-12-30T22:18:28.000Z", "last_edite": "SDE", "last_edi_1": "2015-12-30T22:18:28.000Z" }, "geometry": { "type": "Point", "coordinates": [ -84.452293725002832, 33.606816993004543 ] } },
{ "type": "Feature", "properties": { "OBJECTID": 183, "ID": "10417227", "Asset": "Hospital", "Name": "EMORY CRAWFORD LONG HOSPITAL", "TELEPHONE": "404-686-4411", "ADDRESS": "550 PEACHTREE STREET NORTHEAST", "ADDRESS2": null, "CITY": "ATLANTA", "STATE": "GA", "ZIP": "30308", "ZIPP4": "2209", "COUNTY": "FULTON", "FIPS": "13121", "DIRECTIONS": "WEST SIDE OF PEACHTREE ST NE ACROSS FROM THE PEACHTREE ST NE AND RENAISSANCE PKY NE T INTERSECTION", "EMERGTITLE": null, "EMERGTEL": null, "EMERGEXT": null, "CONTDATE": "2012-01-18T00:00:00.000Z", "CONTHOW": "PHONE", "GEODATE": "2008-01-22T00:00:00.000Z", "GEOHOW": "MANUAL", "NAICSCODE": "622110", "NAICSDESCR": "HOSPITALS, GENERAL MEDICAL AND SURGICAL", "GEOLINKID": "22696339", "X": -84.385864, "Y": 33.768697, "ST_VENDOR": "NAVTEQ", "ST_VERSION": "2006Q4", "GEOPREC": "ONENTITY", "PHONELOC": "YES", "QC_QA": "TGS", "STATE_ID": "6919", "GlobalID": "{30992A88-4FF9-4DC7-880C-78DFFF3B3734}", "created_us": "SDE", "created_da": "2015-12-30T22:18:28.000Z", "last_edite": "SDE", "last_edi_1": "2015-12-30T22:18:28.000Z" }, "geometry": { "type": "Point", "coordinates": [ -84.386117838002846, 33.771465027004531 ] } },
{ "type": "Feature", "properties": { "OBJECTID": 184, "ID": "10417073", "Asset": "Hospital", "Name": "DEVEREAUX CENTER", "TELEPHONE": "770-427-0147", "ADDRESS": "1291 STANLEY ROAD", "ADDRESS2": null, "CITY": "KENNESAW", "STATE": "GA", "ZIP": "30152", "ZIPP4": "4359", "COUNTY": "COBB", "FIPS": "13067", "DIRECTIONS": "LOCATED ON THE SE SIDE OF STANLEY RD NW 0.26 MILES SW OF BARRETT KNOLL CIR NW.", "EMERGTITLE": null, "EMERGTEL": null, "EMERGEXT": null, "CONTDATE": "2012-01-04T00:00:00.000Z", "CONTHOW": "PHONE", "GEODATE": "2008-01-22T00:00:00.000Z", "GEOHOW": "MANUAL", "NAICSCODE": "622310", "NAICSDESCR": "HOSPITALS, SPECIALTY (EXCEPT PSYCHIATRIC, SUBSTANCE ABUSE)", "GEOLINKID": "22673191", "X": -84.611399, "Y": 33.988478, "ST_VENDOR": "NAVTEQ", "ST_VERSION": "2006Q4", "GEOPREC": "BLOCKFACE", "PHONELOC": "YES", "QC_QA": "TGS", "STATE_ID": "6501", "GlobalID": "{8A60565C-D890-41D7-828B-D56B2859AEF1}", "created_us": "SDE", "created_da": "2015-12-30T22:18:28.000Z", "last_edite": "SDE", "last_edi_1": "2015-12-30T22:18:28.000Z" }, "geometry": { "type": "Point", "coordinates": [ -84.611312949002865, 33.98844828500453 ] } },
{ "type": "Feature", "properties": { "OBJECTID": 185, "ID": "10417212", "Asset": "Hospital", "Name": "KINDRED HOSPITAL - ATLANTA", "TELEPHONE": "404-873-2871", "ADDRESS": "705 JUNIPER STREET NORTHEAST", "ADDRESS2": null, "CITY": "ATLANTA", "STATE": "GA", "ZIP": "30308", "ZIPP4": "1307", "COUNTY": "FULTON", "FIPS": "13121", "DIRECTIONS": "NORTHEAST CORNER OF JUNIPER ST NE AND 3RD ST NE", "EMERGTITLE": null, "EMERGTEL": null, "EMERGEXT": null, "CONTDATE": "2012-01-18T00:00:00.000Z", "CONTHOW": "PHONE", "GEODATE": "2008-01-22T00:00:00.000Z", "GEOHOW": "MANUAL", "NAICSCODE": "622110", "NAICSDESCR": "HOSPITALS, GENERAL MEDICAL AND SURGICAL", "GEOLINKID": "22695675", "X": -84.382642, "Y": 33.773736, "ST_VENDOR": "NAVTEQ", "ST_VERSION": "2006Q4", "GEOPREC": "ONENTITY", "PHONELOC": "YES", "QC_QA": "TGS", "STATE_ID": "6469", "GlobalID": "{8FA42EBA-6416-4BE0-9A80-1556B2BE889C}", "created_us": "SDE", "created_da": "2015-12-30T22:18:28.000Z", "last_edite": "SDE", "last_edi_1": "2015-12-30T22:18:28.000Z" }, "geometry": { "type": "Point", "coordinates": [ -84.382724140002821, 33.776492040004541 ] } },
{ "type": "Feature", "properties": { "OBJECTID": 186, "ID": "10416881", "Asset": "Hospital", "Name": "WELLSTAR DOUGLAS HOSPITAL", "TELEPHONE": "770-949-1500", "ADDRESS": "8954 HOSPITAL DRIVE", "ADDRESS2": null, "CITY": "DOUGLASVILLE", "STATE": "GA", "ZIP": "30134", "ZIPP4": "2272", "COUNTY": "DOUGLAS", "FIPS": "13097", "DIRECTIONS": "LOCATED ON THE E SIDE OF HOSPITAL DR BETWEEN PRESTLEY MILL RD AND PROFESSIONAL PKY.", "EMERGTITLE": null, "EMERGTEL": null, "EMERGEXT": null, "CONTDATE": "2012-01-12T00:00:00.000Z", "CONTHOW": "PHONE", "GEODATE": "2008-01-22T00:00:00.000Z", "GEOHOW": "MANUAL", "NAICSCODE": "622110", "NAICSDESCR": "HOSPITALS, GENERAL MEDICAL AND SURGICAL", "GEOLINKID": "133502852", "X": -84.731571, "Y": 33.739070, "ST_VENDOR": "NAVTEQ", "ST_VERSION": "2006Q4", "GEOPREC": "ONENTITY", "PHONELOC": "YES", "QC_QA": "TGS", "STATE_ID": null, "GlobalID": "{941EE9D4-6A8F-4D12-B72C-D92C61D20572}", "created_us": "SDE", "created_da": "2015-12-30T22:18:28.000Z", "last_edite": "SDE", "last_edi_1": "2015-12-30T22:18:28.000Z" }, "geometry": { "type": "Point", "coordinates": [ -84.731647375002879, 33.738868803004536 ] } },
{ "type": "Feature", "properties": { "OBJECTID": 187, "ID": "10417228", "Asset": "Hospital", "Name": "NORTH FULTON REGIONAL HOSPITAL", "TELEPHONE": "404-751-2512", "ADDRESS": "3000 HOSPITAL BOULEVARD", "ADDRESS2": null, "CITY": "ROSWELL", "STATE": "GA", "ZIP": "30076", "ZIPP4": "4915", "COUNTY": "FULTON", "FIPS": "13121", "DIRECTIONS": null, "EMERGTITLE": null, "EMERGTEL": null, "EMERGEXT": null, "CONTDATE": "2012-01-18T00:00:00.000Z", "CONTHOW": "PHONE", "GEODATE": "2008-01-28T00:00:00.000Z", "GEOHOW": "PROVIDED", "NAICSCODE": "622110", "NAICSDESCR": "HOSPITALS, GENERAL MEDICAL AND SURGICAL", "GEOLINKID": null, "X": -84.320808, "Y": 34.062942, "ST_VENDOR": "NAVTEQ", "ST_VERSION": "2006Q4", "GEOPREC": "ONENTITY", "PHONELOC": "YES", "QC_QA": "TGS", "STATE_ID": "6921", "GlobalID": "{8FE4B808-B9A4-4677-AD86-C260151395F1}", "created_us": "SDE", "created_da": "2015-12-30T22:18:28.000Z", "last_edite": "SDE", "last_edi_1": "2015-12-30T22:18:28.000Z" }, "geometry": { "type": "Point", "coordinates": [ -84.320266272002854, 34.065752041004522 ] } },
{ "type": "Feature", "properties": { "OBJECTID": 188, "ID": "10417070", "Asset": "Hospital", "Name": "PIEDMONT FAYETTE HOSPITAL", "TELEPHONE": "770-719-7000", "ADDRESS": "1255 STATE HIGHWAY 54 WEST", "ADDRESS2": null, "CITY": "FAYETTEVILLE", "STATE": "GA", "ZIP": "30214", "ZIPP4": null, "COUNTY": "FAYETTE", "FIPS": "13113", "DIRECTIONS": "LOC ON THE NORTH SIDE OF GA-54 W 0.35 MILES WEST OF THE INT OF SANDY CREEK RD AND GA-54 W", "EMERGTITLE": null, "EMERGTEL": null, "EMERGEXT": null, "CONTDATE": "2012-01-17T00:00:00.000Z", "CONTHOW": "PHONE", "GEODATE": "2008-01-22T00:00:00.000Z", "GEOHOW": "MANUAL", "NAICSCODE": "622110", "NAICSDESCR": "HOSPITALS, GENERAL MEDICAL AND SURGICAL", "GEOLINKID": "133516975", "X": -84.507946, "Y": 33.452672, "ST_VENDOR": "NAVTEQ", "ST_VERSION": "2006Q4", "GEOPREC": "ONENTITY", "PHONELOC": "YES", "QC_QA": "TGS", "STATE_ID": "6931", "GlobalID": "{43996DB4-1795-4908-902E-004BD2F5BA96}", "created_us": "SDE", "created_da": "2015-12-30T22:18:28.000Z", "last_edite": "SDE", "last_edi_1": "2015-12-30T22:18:28.000Z" }, "geometry": { "type": "Point", "coordinates": [ -84.509049242002831, 33.45194262900452 ] } },
{ "type": "Feature", "properties": { "OBJECTID": 189, "ID": "10417226", "Asset": "Hospital", "Name": "GLANCY REHABILITATION CENTER", "TELEPHONE": "678-584-6800", "ADDRESS": "3215 MCCLURE BRIDGE ROAD", "ADDRESS2": null, "CITY": "DULUTH", "STATE": "GA", "ZIP": "30096", "ZIPP4": "3223", "COUNTY": "GWINNETT", "FIPS": "13135", "DIRECTIONS": "SOUTHEAST CORNER OF FACTORY RD NEW AND IRVINGDALE RD NW.", "EMERGTITLE": null, "EMERGTEL": null, "EMERGEXT": null, "CONTDATE": "2008-01-22T00:00:00.000Z", "CONTHOW": "PHONE", "GEODATE": "2008-01-22T00:00:00.000Z", "GEOHOW": "MANUAL", "NAICSCODE": "622310", "NAICSDESCR": "REHABILITATION HOSPITALS (EXCEPT ALCOHOLISM, DRUG ADDICTION)", "GEOLINKID": "133502749", "X": -84.152886, "Y": 34.006963, "ST_VENDOR": "NAVTEQ", "ST_VERSION": "2006Q4", "GEOPREC": "ONENTITY", "PHONELOC": "NO", "QC_QA": "TGS", "STATE_ID": "6918", "GlobalID": "{E53A2F7E-76E8-4091-8FE5-A9FD9F185228}", "created_us": "SDE", "created_da": "2015-12-30T22:18:28.000Z", "last_edite": "SDE", "last_edi_1": "2015-12-30T22:18:28.000Z" }, "geometry": { "type": "Point", "coordinates": [ -84.152885721002875, 34.006962595004559 ] } },
{ "type": "Feature", "properties": { "OBJECTID": 190, "ID": "10416884", "Asset": "Hospital", "Name": "WELLSTAR WINDY HILL HOSPITAL", "TELEPHONE": "770-644-1000", "ADDRESS": "2540 WINDY HILL ROAD", "ADDRESS2": null, "CITY": "MARIETTA", "STATE": "GA", "ZIP": "30067", "ZIPP4": "8605", "COUNTY": "COBB", "FIPS": "13067", "DIRECTIONS": "LOCATED ON THE S SIDE OF WINDY HILL ROAD SE 0.04 MILES W OF S PARK PL SE.", "EMERGTITLE": null, "EMERGTEL": null, "EMERGEXT": null, "CONTDATE": "2012-01-04T00:00:00.000Z", "CONTHOW": "PHONE", "GEODATE": "2008-01-22T00:00:00.000Z", "GEOHOW": "MANUAL", "NAICSCODE": "622110", "NAICSDESCR": "HOSPITALS, GENERAL MEDICAL AND SURGICAL", "GEOLINKID": "123794095", "X": -84.479411, "Y": 33.901081, "ST_VENDOR": "NAVTEQ", "ST_VERSION": "2006Q4", "GEOPREC": "BLOCKFACE", "PHONELOC": "YES", "QC_QA": "TGS", "STATE_ID": null, "GlobalID": "{A69F8761-F761-472C-BE59-8B4559ED8D24}", "created_us": "SDE", "created_da": "2015-12-30T22:18:28.000Z", "last_edite": "SDE", "last_edi_1": "2015-12-30T22:18:28.000Z" }, "geometry": { "type": "Point", "coordinates": [ -84.479410815002836, 33.901081083004534 ] } },
{ "type": "Feature", "properties": { "OBJECTID": 191, "ID": "10417234", "Asset": "Hospital", "Name": "SOUTH FULTON MEDICAL CENTER, INC.", "TELEPHONE": "404-305-3550", "ADDRESS": "1170 CLEVELAND AVENUE", "ADDRESS2": null, "CITY": "EAST POINT", "STATE": "GA", "ZIP": "30344", "ZIPP4": "3615", "COUNTY": "FULTON", "FIPS": "13121", "DIRECTIONS": null, "EMERGTITLE": null, "EMERGTEL": null, "EMERGEXT": null, "CONTDATE": "2012-01-18T00:00:00.000Z", "CONTHOW": "PHONE", "GEODATE": "2008-01-28T00:00:00.000Z", "GEOHOW": "PROVIDED", "NAICSCODE": "622110", "NAICSDESCR": "HOSPITALS, GENERAL MEDICAL AND SURGICAL", "GEOLINKID": null, "X": -84.427605, "Y": 33.680614, "ST_VENDOR": "NAVTEQ", "ST_VERSION": "2006Q4", "GEOPREC": "ONENTITY", "PHONELOC": "YES", "QC_QA": "TGS", "STATE_ID": "6930", "GlobalID": "{B66261FC-AF62-4925-AA3E-4B683B59EECD}", "created_us": "SDE", "created_da": "2015-12-30T22:18:28.000Z", "last_edite": "SDE", "last_edi_1": "2015-12-30T22:18:28.000Z" }, "geometry": { "type": "Point", "coordinates": [ -84.427058438002845, 33.683195825004525 ] } },
{ "type": "Feature", "properties": { "OBJECTID": 192, "ID": "10416851", "Asset": "Hospital", "Name": "DEKALB MEDICAL CENTER", "TELEPHONE": "404-501-8000", "ADDRESS": "2801 DEKALB MEDICAL PKWY", "ADDRESS2": null, "CITY": "LITHONIA", "STATE": "GA", "ZIP": "30058", "ZIPP4": null, "COUNTY": "DEKALB", "FIPS": "13089", "DIRECTIONS": null, "EMERGTITLE": null, "EMERGTEL": null, "EMERGEXT": null, "CONTDATE": "2012-01-10T00:00:00.000Z", "CONTHOW": "PHONE", "GEODATE": "2008-01-11T00:00:00.000Z", "GEOHOW": "AUTO", "NAICSCODE": "622110", "NAICSDESCR": "HOSPITALS, GENERAL MEDICAL AND SURGICAL", "GEOLINKID": "127178454", "X": -84.146968, "Y": 33.710502, "ST_VENDOR": "NAVTEQ", "ST_VERSION": "2006Q4", "GEOPREC": "BLOCKFACE", "PHONELOC": "YES", "QC_QA": "TGS", "STATE_ID": null, "GlobalID": "{DF364E1F-1B83-4C61-9FCD-F4D4C568C777}", "created_us": "SDE", "created_da": "2015-12-30T22:18:28.000Z", "last_edite": "SDE", "last_edi_1": "2015-12-30T22:18:28.000Z" }, "geometry": { "type": "Point", "coordinates": [ -84.149003856002849, 33.709657595004579 ] } },
{ "type": "Feature", "properties": { "OBJECTID": 193, "ID": "10417238", "Asset": "Hospital", "Name": "VETERANS HOSPITAL", "TELEPHONE": "404-321-6111", "ADDRESS": "1670 CLAIRMONT RD", "ADDRESS2": null, "CITY": "DECATUR", "STATE": "GA", "ZIP": "30033", "ZIPP4": "4004", "COUNTY": "DEKALB", "FIPS": "13089", "DIRECTIONS": null, "EMERGTITLE": null, "EMERGTEL": null, "EMERGEXT": null, "CONTDATE": "2012-01-10T00:00:00.000Z", "CONTHOW": "PHONE", "GEODATE": "2008-01-22T00:00:00.000Z", "GEOHOW": "PROVIDED", "NAICSCODE": "622110", "NAICSDESCR": "HOSPITALS, GENERAL MEDICAL AND SURGICAL", "GEOLINKID": null, "X": -84.310982, "Y": 33.803143, "ST_VENDOR": "NAVTEQ", "ST_VERSION": "2006Q4", "GEOPREC": "ONENTITY", "PHONELOC": "YES", "QC_QA": "TGS", "STATE_ID": "6935", "GlobalID": "{6DAAF7D9-DA31-423E-92B3-83E31E4A4887}", "created_us": "SDE", "created_da": "2015-12-30T22:18:28.000Z", "last_edite": "SDE", "last_edi_1": "2015-12-30T22:18:28.000Z" }, "geometry": { "type": "Point", "coordinates": [ -84.311711948002852, 33.801586505004551 ] } },
{ "type": "Feature", "properties": { "OBJECTID": 194, "ID": "10417246", "Asset": "Hospital", "Name": "SOUTHERN REGIONAL MEDICAL CENTER", "TELEPHONE": "770-991-8000", "ADDRESS": "11 SOUTHWEST UPPER RIVERDALE ROAD", "ADDRESS2": null, "CITY": "RIVERDALE", "STATE": "GA", "ZIP": "30274", "ZIPP4": "2615", "COUNTY": "CLAYTON", "FIPS": "13063", "DIRECTIONS": "LOCATED ON THE N SIDE OF SW UPPER RIVERDALE RD 0.10 MILES N OF UPPER RIVERDALE RD SW.", "EMERGTITLE": null, "EMERGTEL": null, "EMERGEXT": null, "CONTDATE": "2011-12-27T00:00:00.000Z", "CONTHOW": "PHONE", "GEODATE": "2008-01-22T00:00:00.000Z", "GEOHOW": "MANUAL", "NAICSCODE": "622110", "NAICSDESCR": "HOSPITALS, GENERAL MEDICAL AND SURGICAL", "GEOLINKID": "22736008", "X": -84.389662, "Y": 33.579186, "ST_VENDOR": "NAVTEQ", "ST_VERSION": "2006Q4", "GEOPREC": "ONENTITY", "PHONELOC": "YES", "QC_QA": "TGS", "STATE_ID": "6945", "GlobalID": "{45ACB7A4-076A-43E4-A355-C48034460A7B}", "created_us": "SDE", "created_da": "2015-12-30T22:18:28.000Z", "last_edite": "SDE", "last_edi_1": "2015-12-30T22:18:28.000Z" }, "geometry": { "type": "Point", "coordinates": [ -84.389661936002867, 33.579185469004528 ] } },
{ "type": "Feature", "properties": { "OBJECTID": 195, "ID": "10417242", "Asset": "Hospital", "Name": "DEKALB MEDICAL CENTER", "TELEPHONE": "404-501-1000", "ADDRESS": "2701 N. DECATUR ROAD", "ADDRESS2": null, "CITY": "DECATUR", "STATE": "GA", "ZIP": "30033", "ZIPP4": "5918", "COUNTY": "DEKALB", "FIPS": "13089", "DIRECTIONS": null, "EMERGTITLE": null, "EMERGTEL": null, "EMERGEXT": null, "CONTDATE": "2012-01-10T00:00:00.000Z", "CONTHOW": "PHONE", "GEODATE": "2008-01-22T00:00:00.000Z", "GEOHOW": "PROVIDED", "NAICSCODE": "622110", "NAICSDESCR": "HOSPITALS, GENERAL MEDICAL AND SURGICAL", "GEOLINKID": null, "X": -84.282799, "Y": 33.790028, "ST_VENDOR": "NAVTEQ", "ST_VERSION": "2006Q4", "GEOPREC": "ONENTITY", "PHONELOC": "YES", "QC_QA": "TGS", "STATE_ID": "6939", "GlobalID": "{7E08D245-4107-44C6-B592-01BDB3F75AA5}", "created_us": "SDE", "created_da": "2015-12-30T22:18:28.000Z", "last_edite": "SDE", "last_edi_1": "2015-12-30T22:18:28.000Z" }, "geometry": { "type": "Point", "coordinates": [ -84.281591203002833, 33.790248664004537 ] } },
{ "type": "Feature", "properties": { "OBJECTID": 196, "ID": "10417224", "Asset": "Hospital", "Name": "EMORY EASTSIDE MEDICAL CENTER", "TELEPHONE": "770-979-0200", "ADDRESS": "1700 MEDICAL WAY", "ADDRESS2": null, "CITY": "SNELLVILLE", "STATE": "GA", "ZIP": "30078", "ZIPP4": "2195", "COUNTY": "GWINNETT", "FIPS": "13135", "DIRECTIONS": "NORTH SIDE OF TREE LN SW, 0.31 MILES SOUTHEAST ON TREE LN SW FROM THE INTERSECTION AT TREE LN SW AND NEW HAMPTON DR SW.", "EMERGTITLE": null, "EMERGTEL": null, "EMERGEXT": null, "CONTDATE": "2008-01-22T00:00:00.000Z", "CONTHOW": "PHONE", "GEODATE": "2008-01-22T00:00:00.000Z", "GEOHOW": "MANUAL", "NAICSCODE": "622110", "NAICSDESCR": "HOSPITALS, GENERAL MEDICAL AND SURGICAL", "GEOLINKID": "124543796", "X": -84.021275, "Y": 33.877307, "ST_VENDOR": "NAVTEQ", "ST_VERSION": "2006Q4", "GEOPREC": "ONENTITY", "PHONELOC": "YES", "QC_QA": "TGS", "STATE_ID": "6916", "GlobalID": "{6BF2069E-C609-4963-B2CB-DFB628394D6C}", "created_us": "SDE", "created_da": "2015-12-30T22:18:28.000Z", "last_edite": "SDE", "last_edi_1": "2015-12-30T22:18:28.000Z" }, "geometry": { "type": "Point", "coordinates": [ -84.021274914002817, 33.877306863004549 ] } },
{ "type": "Feature", "properties": { "OBJECTID": 197, "ID": "10416838", "Asset": "Hospital", "Name": "ATLANTA MEDICAL CENTER", "TELEPHONE": "404-265-4000", "ADDRESS": "303 PARKWAY DRIVE NORTHEAST", "ADDRESS2": null, "CITY": "ATLANTA", "STATE": "GA", "ZIP": "30312", "ZIPP4": "1212", "COUNTY": "FULTON", "FIPS": "13121", "DIRECTIONS": "EAST OF PARKWAY DR BETWEEN RALPH MCGILL BLVD NE AND HIGHLAND AVE NE", "EMERGTITLE": null, "EMERGTEL": null, "EMERGEXT": null, "CONTDATE": "2012-01-18T00:00:00.000Z", "CONTHOW": "PHONE", "GEODATE": "2008-01-22T00:00:00.000Z", "GEOHOW": "MANUAL", "NAICSCODE": "622110", "NAICSDESCR": "HOSPITALS, GENERAL MEDICAL AND SURGICAL", "GEOLINKID": "133502721", "X": -84.373008, "Y": 33.762588, "ST_VENDOR": "NAVTEQ", "ST_VERSION": "2006Q4", "GEOPREC": "ONENTITY", "PHONELOC": "YES", "QC_QA": "TGS", "STATE_ID": null, "GlobalID": "{A02E3CE6-1F55-4426-BC0D-E3AA851F926D}", "created_us": "SDE", "created_da": "2015-12-30T22:18:28.000Z", "last_edite": "SDE", "last_edi_1": "2015-12-30T22:18:28.000Z" }, "geometry": { "type": "Point", "coordinates": [ -84.373090652002873, 33.765344132004529 ] } },
{ "type": "Feature", "properties": { "OBJECTID": 198, "ID": "10416861", "Asset": "Hospital", "Name": "LAFAYETTE NURSING AND REHAB CENTER", "TELEPHONE": "770-461-2928", "ADDRESS": "110 BRANDYWINE BLVD", "ADDRESS2": null, "CITY": "FAYETTEVILLE", "STATE": "GA", "ZIP": "30214", "ZIPP4": "1500", "COUNTY": "FAYETTE", "FIPS": "13113", "DIRECTIONS": null, "EMERGTITLE": null, "EMERGTEL": null, "EMERGEXT": null, "CONTDATE": "2012-01-17T00:00:00.000Z", "CONTHOW": "PHONE", "GEODATE": "2008-01-11T00:00:00.000Z", "GEOHOW": "AUTO", "NAICSCODE": "622310", "NAICSDESCR": "REHABILITATION HOSPITALS (EXCEPT ALCOHOLISM, DRUG ADDICTION)", "GEOLINKID": "114451726", "X": -84.483102, "Y": 33.452483, "ST_VENDOR": "NAVTEQ", "ST_VERSION": "2006Q4", "GEOPREC": "BLOCKFACE", "PHONELOC": "YES", "QC_QA": "TGS", "STATE_ID": null, "GlobalID": "{4DDC8999-11EA-469E-B46B-A7395A85E8B4}", "created_us": "SDE", "created_da": "2015-12-30T22:18:28.000Z", "last_edite": "SDE", "last_edi_1": "2015-12-30T22:18:28.000Z" }, "geometry": { "type": "Point", "coordinates": [ -84.481703456002819, 33.452422488004522 ] } },
{ "type": "Feature", "properties": { "OBJECTID": 199, "ID": "10417220", "Asset": "Hospital", "Name": "RIDGEVIEW INSTITUTE", "TELEPHONE": "770-434-4567", "ADDRESS": "3995 SOUTH COBB DRIVE", "ADDRESS2": null, "CITY": "SMYRNA", "STATE": "GA", "ZIP": "30080", "ZIPP4": "6342", "COUNTY": "COBB", "FIPS": "13067", "DIRECTIONS": "LOCATED ON THE NE SIDE OF S COBB DR SE 0.31 MILES SE OF KING SPRINGS RD SE.", "EMERGTITLE": null, "EMERGTEL": null, "EMERGEXT": null, "CONTDATE": "2012-01-04T00:00:00.000Z", "CONTHOW": "PHONE", "GEODATE": "2008-01-22T00:00:00.000Z", "GEOHOW": "MANUAL", "NAICSCODE": "622110", "NAICSDESCR": "HOSPITALS, GENERAL MEDICAL AND SURGICAL", "GEOLINKID": "23245222", "X": -84.512997, "Y": 33.855620, "ST_VENDOR": "NAVTEQ", "ST_VERSION": "2006Q4", "GEOPREC": "BLOCKFACE", "PHONELOC": "YES", "QC_QA": "TGS", "STATE_ID": "6504", "GlobalID": "{F604AAAF-FB22-45A9-8EBE-A7C6B85DAFEA}", "created_us": "SDE", "created_da": "2015-12-30T22:18:28.000Z", "last_edite": "SDE", "last_edi_1": "2015-12-30T22:18:28.000Z" }, "geometry": { "type": "Point", "coordinates": [ -84.512996954002858, 33.855620303004507 ] } },
{ "type": "Feature", "properties": { "OBJECTID": 200, "ID": "10417225", "Asset": "Hospital", "Name": "GWINNETT MEDICAL CENTER", "TELEPHONE": "770-995-4321", "ADDRESS": "1000 MEDICAL CENTER BOULEVARD", "ADDRESS2": null, "CITY": "LAWRENCEVILLE", "STATE": "GA", "ZIP": "30045", "ZIPP4": "7694", "COUNTY": "GWINNETT", "FIPS": "13135", "DIRECTIONS": "FROM THE INTERSECTION OF LAWRENCEVILLE SUWANNEE RD NW AND MEDICAL CENTER BLVD NW, TRAVEL NE .10 MILE THEN NW .13 MILE, TURN E .08 MILE, EN SITS ON N SIDE.", "EMERGTITLE": null, "EMERGTEL": null, "EMERGEXT": null, "CONTDATE": "2008-01-22T00:00:00.000Z", "CONTHOW": "PHONE", "GEODATE": "2008-01-22T00:00:00.000Z", "GEOHOW": "MANUAL", "NAICSCODE": "622110", "NAICSDESCR": "HOSPITALS, GENERAL MEDICAL AND SURGICAL", "GEOLINKID": "127177197", "X": -84.017392, "Y": 33.963508, "ST_VENDOR": "NAVTEQ", "ST_VERSION": "2006Q4", "GEOPREC": "ONENTITY", "PHONELOC": "YES", "QC_QA": "TGS", "STATE_ID": "6917", "GlobalID": "{ECB2DF87-EDBE-4F2F-BE06-79C5A8E7775B}", "created_us": "SDE", "created_da": "2015-12-30T22:18:28.000Z", "last_edite": "SDE", "last_edi_1": "2015-12-30T22:18:28.000Z" }, "geometry": { "type": "Point", "coordinates": [ -84.017391451002865, 33.963507596004547 ] } },
{ "type": "Feature", "properties": { "OBJECTID": 201, "ID": "10417069", "Asset": "Hospital", "Name": "PIEDMONT HOSPITAL", "TELEPHONE": "404-605-5000", "ADDRESS": "1968 PEACHTREE ROAD NORTHWEST", "ADDRESS2": null, "CITY": "ATLANTA", "STATE": "GA", "ZIP": "30309", "ZIPP4": "1281", "COUNTY": "FULTON", "FIPS": "13121", "DIRECTIONS": "LOCATED AT THE NORTH CORNER OF COLLIER ROAD NW AND PEACHTREE RD NW.", "EMERGTITLE": null, "EMERGTEL": null, "EMERGEXT": null, "CONTDATE": "2012-01-18T00:00:00.000Z", "CONTHOW": "PHONE", "GEODATE": "2008-01-24T00:00:00.000Z", "GEOHOW": "MANUAL", "NAICSCODE": "622110", "NAICSDESCR": "HOSPITALS, GENERAL MEDICAL AND SURGICAL", "GEOLINKID": "127087717", "X": -84.394836, "Y": 33.808562, "ST_VENDOR": "NAVTEQ", "ST_VERSION": "2006Q4", "GEOPREC": "ONENTITY", "PHONELOC": "YES", "QC_QA": "TGS", "STATE_ID": "6920", "GlobalID": "{F915087D-5708-4A05-ADD0-E843C33417FF}", "created_us": "SDE", "created_da": "2015-12-30T22:18:28.000Z", "last_edite": "SDE", "last_edi_1": "2015-12-30T22:18:28.000Z" }, "geometry": { "type": "Point", "coordinates": [ -84.394918453002859, 33.811317963004569 ] } },
{ "type": "Feature", "properties": { "OBJECTID": 202, "ID": "10417054", "Asset": "Hospital", "Name": "CHILDREN'S HEALTHCARE OF ATLANTA AT EGLESTON", "TELEPHONE": "404-785-6000", "ADDRESS": "1405 CLIFTON ROAD NORTHEAST", "ADDRESS2": null, "CITY": "ATLANTA", "STATE": "GA", "ZIP": "30322", "ZIPP4": "1062", "COUNTY": "DEKALB", "FIPS": "13089", "DIRECTIONS": "LOCATED ON THE E SIDE OF CLIFTON ROAD NE BETWEEN HAYGOOD DR NE AND WOODRUFF CIR N.", "EMERGTITLE": null, "EMERGTEL": null, "EMERGEXT": null, "CONTDATE": "2012-01-10T00:00:00.000Z", "CONTHOW": "PHONE", "GEODATE": "2008-01-24T00:00:00.000Z", "GEOHOW": "MANUAL", "NAICSCODE": "622110", "NAICSDESCR": "CHILDREN'S HOSPITALS, GENERAL", "GEOLINKID": "118805824", "X": -84.320640, "Y": 33.793844, "ST_VENDOR": "NAVTEQ", "ST_VERSION": "2006Q4", "GEOPREC": "BLOCKFACE", "PHONELOC": "YES", "QC_QA": "TGS", "STATE_ID": "6940", "GlobalID": "{A9B1D7A9-7EE1-40D7-A6FA-05A2A89CE1B3}", "created_us": "SDE", "created_da": "2015-12-30T22:18:28.000Z", "last_edite": "SDE", "last_edi_1": "2015-12-30T22:18:28.000Z" }, "geometry": { "type": "Point", "coordinates": [ -84.32032944900287, 33.79411029500455 ] } },
{ "type": "Feature", "properties": { "OBJECTID": 203, "ID": "10416862", "Asset": "Hospital", "Name": "LAUREL HEIGHTS HOSPITAL", "TELEPHONE": "404-888-7860", "ADDRESS": "934 BRIARCLIFF ROAD NORTHEAST", "ADDRESS2": null, "CITY": "ATLANTA", "STATE": "GA", "ZIP": "30306", "ZIPP4": "2618", "COUNTY": "DEKALB", "FIPS": "13089", "DIRECTIONS": "NORTHWEST SIDE OF BRIARCLIFF RD NE. BETWEEN VIRGINIA AVE NE AND STILLWOOD DR NE.", "EMERGTITLE": null, "EMERGTEL": null, "EMERGEXT": null, "CONTDATE": "2012-01-10T00:00:00.000Z", "CONTHOW": "PHONE", "GEODATE": "2008-01-22T00:00:00.000Z", "GEOHOW": "MANUAL", "NAICSCODE": "622110", "NAICSDESCR": "HOSPITALS, GENERAL MEDICAL AND SURGICAL", "GEOLINKID": "17037321", "X": -84.345075, "Y": 33.779911, "ST_VENDOR": "NAVTEQ", "ST_VERSION": "2006Q4", "GEOPREC": "BLOCKFACE", "PHONELOC": "YES", "QC_QA": "TGS", "STATE_ID": null, "GlobalID": "{7E45A608-4379-42EF-A6B0-B9B55075F2AA}", "created_us": "SDE", "created_da": "2015-12-30T22:18:28.000Z", "last_edite": "SDE", "last_edi_1": "2015-12-30T22:18:28.000Z" }, "geometry": { "type": "Point", "coordinates": [ -84.345293343002851, 33.780087982004517 ] } },
{ "type": "Feature", "properties": { "OBJECTID": 204, "ID": "10416882", "Asset": "Hospital", "Name": "WELLSTAR KENNESTONE HOSPITAL", "TELEPHONE": "770-793-5000", "ADDRESS": "677 CHURCH STREET", "ADDRESS2": null, "CITY": "MARIETTA", "STATE": "GA", "ZIP": "30060", "ZIPP4": null, "COUNTY": "COBB", "FIPS": "13067", "DIRECTIONS": "LOCATED AT THE NW CORNER OF WHITCHER ST NE AND CHURCH ST NW.", "EMERGTITLE": null, "EMERGTEL": null, "EMERGEXT": null, "CONTDATE": "2012-01-04T00:00:00.000Z", "CONTHOW": "PHONE", "GEODATE": "2008-01-22T00:00:00.000Z", "GEOHOW": "MANUAL", "NAICSCODE": "622110", "NAICSDESCR": "HOSPITALS, GENERAL MEDICAL AND SURGICAL", "GEOLINKID": "133502759", "X": -84.551060, "Y": 33.968091, "ST_VENDOR": "NAVTEQ", "ST_VERSION": "2006Q4", "GEOPREC": "ONENTITY", "PHONELOC": "YES", "QC_QA": "TGS", "STATE_ID": null, "GlobalID": "{0E1E872B-3DB8-49EA-B270-77357F64AF96}", "created_us": "SDE", "created_da": "2015-12-30T22:18:28.000Z", "last_edite": "SDE", "last_edi_1": "2015-12-30T22:18:28.000Z" }, "geometry": { "type": "Point", "coordinates": [ -84.551060288002887, 33.968090966004496 ] } },
{ "type": "Feature", "properties": { "OBJECTID": 205, "ID": "10417062", "Asset": "Hospital", "Name": "CHILDREN'S HEALTH CARE OF ATLANTA AT SCOTTISH RITE", "TELEPHONE": "404-785-5252", "ADDRESS": "1001 JOHNSON FERRY ROAD", "ADDRESS2": null, "CITY": "ATLANTA", "STATE": "GA", "ZIP": "30342", "ZIPP4": "1605", "COUNTY": "FULTON", "FIPS": "13121", "DIRECTIONS": "SOUTHEAST CORNER OF MERIDIAN MARKS RD NE AND JOHNSON FERRY RD NE", "EMERGTITLE": null, "EMERGTEL": null, "EMERGEXT": null, "CONTDATE": "2012-01-18T00:00:00.000Z", "CONTHOW": "PHONE", "GEODATE": "2008-01-22T00:00:00.000Z", "GEOHOW": "MANUAL", "NAICSCODE": "622110", "NAICSDESCR": "CHILDREN'S HOSPITALS, GENERAL", "GEOLINKID": "133507038", "X": -84.353892, "Y": 33.906815, "ST_VENDOR": "NAVTEQ", "ST_VERSION": "2006Q4", "GEOPREC": "ONENTITY", "PHONELOC": "YES", "QC_QA": "TGS", "STATE_ID": "6923", "GlobalID": "{5AA21173-E49A-4B7E-AC2A-EF1E0C9D068F}", "created_us": "SDE", "created_da": "2015-12-30T22:18:28.000Z", "last_edite": "SDE", "last_edi_1": "2015-12-30T22:18:28.000Z" }, "geometry": { "type": "Point", "coordinates": [ -84.353974063002852, 33.909570925004495 ] } },
{ "type": "Feature", "properties": { "OBJECTID": 206, "ID": "10417240", "Asset": "Hospital", "Name": "WESLEY WOODS GERIATRIC HOSPITAL", "TELEPHONE": "404-728-6200", "ADDRESS": "1821 CLIFTON ROAD NORTHEAST", "ADDRESS2": null, "CITY": "ATLANTA", "STATE": "GA", "ZIP": "30329", "ZIPP4": "4021", "COUNTY": "DEKALB", "FIPS": "13089", "DIRECTIONS": "NORTHEAST SIDE OF CLIFTON RD NE. 0.22 MILE SOUTHEAST OF THE GA-42 AND CLIFTON RD INTERSECTION.", "EMERGTITLE": null, "EMERGTEL": null, "EMERGEXT": null, "CONTDATE": "2012-01-10T00:00:00.000Z", "CONTHOW": "PHONE", "GEODATE": "2008-01-22T00:00:00.000Z", "GEOHOW": "MANUAL", "NAICSCODE": "622110", "NAICSDESCR": "HOSPITALS, GENERAL MEDICAL AND SURGICAL", "GEOLINKID": "22660373", "X": -84.331400, "Y": 33.804726, "ST_VENDOR": "NAVTEQ", "ST_VERSION": "2006Q4", "GEOPREC": "ONENTITY", "PHONELOC": "YES", "QC_QA": "TGS", "STATE_ID": "6937", "GlobalID": "{EB901EA4-569E-4C7B-A688-1327DEFF3F5B}", "created_us": "SDE", "created_da": "2015-12-30T22:18:28.000Z", "last_edite": "SDE", "last_edi_1": "2015-12-30T22:18:28.000Z" }, "geometry": { "type": "Point", "coordinates": [ -84.331400233002839, 33.804726021004548 ] } },
{ "type": "Feature", "properties": { "OBJECTID": 207, "ID": "10417215", "Asset": "Hospital", "Name": "INNER HARBOUR FOR CHILDREN AND FAMILIES", "TELEPHONE": "770-942-2391", "ADDRESS": "4685 DORSETT SHOALS ROAD", "ADDRESS2": null, "CITY": "DOUGLASVILLE", "STATE": "GA", "ZIP": "30135", "ZIPP4": "4921", "COUNTY": "DOUGLAS", "FIPS": "13097", "DIRECTIONS": "LOCATED ON THE SE SIDE OF DORSETT SHOALS RD ABOUT .09 MILES NE OF COURSEY LAKE RD.", "EMERGTITLE": null, "EMERGTEL": null, "EMERGEXT": null, "CONTDATE": "2012-01-12T00:00:00.000Z", "CONTHOW": "PHONE", "GEODATE": "2008-01-22T00:00:00.000Z", "GEOHOW": "MANUAL", "NAICSCODE": "622110", "NAICSDESCR": "CHILDREN'S HOSPITALS, GENERAL", "GEOLINKID": "22820500", "X": -84.735099, "Y": 33.680987, "ST_VENDOR": "NAVTEQ", "ST_VERSION": "2006Q4", "GEOPREC": "BLOCKFACE", "PHONELOC": "YES", "QC_QA": "TGS", "STATE_ID": "6486", "GlobalID": "{35D0EA4A-CF10-4E33-B8EA-D260BD7CA308}", "created_us": "SDE", "created_da": "2015-12-30T22:18:28.000Z", "last_edite": "SDE", "last_edi_1": "2015-12-30T22:18:28.000Z" }, "geometry": { "type": "Point", "coordinates": [ -84.733822899002874, 33.677796460004501 ] } },
{ "type": "Feature", "properties": { "OBJECTID": 208, "ID": "10416872", "Asset": "Hospital", "Name": "RIVERWOODS SOUTHERN REGIONAL PSYCHIATRIC CENTER", "TELEPHONE": "770-991-8500", "ADDRESS": "11 UPPER RIVERDALE ROAD SOUTHWEST", "ADDRESS2": null, "CITY": "RIVERDALE", "STATE": "GA", "ZIP": "30274", "ZIPP4": "2615", "COUNTY": "CLAYTON", "FIPS": "13063", "DIRECTIONS": "LOCATED ON THE N SIDE OF UPPER RIVERDALE ROAD SW 0.17 MILES W IF DON HASTINGS DR.", "EMERGTITLE": null, "EMERGTEL": null, "EMERGEXT": null, "CONTDATE": "2011-12-27T00:00:00.000Z", "CONTHOW": "PHONE", "GEODATE": "2008-01-22T00:00:00.000Z", "GEOHOW": "MANUAL", "NAICSCODE": "622210", "NAICSDESCR": "HOSPITALS, PSYCHIATRIC (EXCEPT CONVALESCENT)", "GEOLINKID": "22736007", "X": -84.389684, "Y": 33.578044, "ST_VENDOR": "NAVTEQ", "ST_VERSION": "2006Q4", "GEOPREC": "BLOCKFACE", "PHONELOC": "YES", "QC_QA": "TGS", "STATE_ID": null, "GlobalID": "{CFE38F87-BE9D-4E65-A588-E11084FE87EA}", "created_us": "SDE", "created_da": "2015-12-30T22:18:28.000Z", "last_edite": "SDE", "last_edi_1": "2015-12-30T22:18:28.000Z" }, "geometry": { "type": "Point", "coordinates": [ -84.390539515002814, 33.57802440900457 ] } },
{ "type": "Feature", "properties": { "OBJECTID": 209, "ID": "10417223", "Asset": "Hospital", "Name": "ROCKDALE MEDICAL CENTER", "TELEPHONE": "770-918-3101", "ADDRESS": "1412 MILSTEAD AVENUE", "ADDRESS2": null, "CITY": "CONYERS", "STATE": "GA", "ZIP": "30012", "ZIPP4": "3877", "COUNTY": "ROCKDALE", "FIPS": "13247", "DIRECTIONS": "NW CORNER OF MILSTEAD RD NE AND STARCREST DR NE", "EMERGTITLE": null, "EMERGTEL": null, "EMERGEXT": null, "CONTDATE": "2008-01-22T00:00:00.000Z", "CONTHOW": "PHONE", "GEODATE": "2008-01-22T00:00:00.000Z", "GEOHOW": "MANUAL", "NAICSCODE": "622110", "NAICSDESCR": "HOSPITALS, GENERAL MEDICAL AND SURGICAL", "GEOLINKID": "22732588", "X": -84.001483, "Y": 33.680726, "ST_VENDOR": "NAVTEQ", "ST_VERSION": "2006Q4", "GEOPREC": "ONENTITY", "PHONELOC": "YES", "QC_QA": "TGS", "STATE_ID": "6642", "GlobalID": "{9A4FFA53-FD78-407B-A862-19BC5CDE1F56}", "created_us": "SDE", "created_da": "2015-12-30T22:18:28.000Z", "last_edite": "SDE", "last_edi_1": "2015-12-30T22:18:28.000Z" }, "geometry": { "type": "Point", "coordinates": [ -84.00105305100287, 33.681473038004569 ] } },
{ "type": "Feature", "properties": { "OBJECTID": 210, "ID": "10417229", "Asset": "Hospital", "Name": "NORTHSIDE HOSPITAL", "TELEPHONE": "404-851-8700", "ADDRESS": "1000 JOHNSON FERRY ROAD", "ADDRESS2": null, "CITY": "ATLANTA", "STATE": "GA", "ZIP": "30342", "ZIPP4": "1606", "COUNTY": "FULTON", "FIPS": "13121", "DIRECTIONS": "NORTHEAST CORNER OF JOHNSON FERRY RD NE AND HOLLIS COBB CIR", "EMERGTITLE": null, "EMERGTEL": null, "EMERGEXT": null, "CONTDATE": "2012-01-18T00:00:00.000Z", "CONTHOW": "PHONE", "GEODATE": "2008-01-22T00:00:00.000Z", "GEOHOW": "MANUAL", "NAICSCODE": "622110", "NAICSDESCR": "HOSPITALS, GENERAL MEDICAL AND SURGICAL", "GEOLINKID": "133507038", "X": -84.354082, "Y": 33.908949, "ST_VENDOR": "NAVTEQ", "ST_VERSION": "2006Q4", "GEOPREC": "ONENTITY", "PHONELOC": "YES", "QC_QA": "TGS", "STATE_ID": "6922", "GlobalID": "{59D99FA4-0B66-4F1F-A440-2EFD2C1CAF1D}", "created_us": "SDE", "created_da": "2015-12-30T22:18:28.000Z", "last_edite": "SDE", "last_edi_1": "2015-12-30T22:18:28.000Z" }, "geometry": { "type": "Point", "coordinates": [ -84.354163634002873, 33.911705322004522 ] } },
{ "type": "Feature", "properties": { "OBJECTID": 211, "ID": "10417217", "Asset": "Hospital", "Name": "GEORGIA REGIONAL HOSPITAL \/ ATLANTA", "TELEPHONE": "404-243-2100", "ADDRESS": "3073 PANTHERSVILLE ROAD", "ADDRESS2": null, "CITY": "DECATUR", "STATE": "GA", "ZIP": "30034", "ZIPP4": "3828", "COUNTY": "DEKALB", "FIPS": "13089", "DIRECTIONS": null, "EMERGTITLE": null, "EMERGTEL": null, "EMERGEXT": null, "CONTDATE": "2012-01-10T00:00:00.000Z", "CONTHOW": "PHONE", "GEODATE": "2008-01-22T00:00:00.000Z", "GEOHOW": "PROVIDED", "NAICSCODE": "622110", "NAICSDESCR": "HOSPITALS, GENERAL MEDICAL AND SURGICAL", "GEOLINKID": null, "X": -84.272163, "Y": 33.694275, "ST_VENDOR": "NAVTEQ", "ST_VERSION": "2006Q4", "GEOPREC": "ONENTITY", "PHONELOC": "YES", "QC_QA": "TGS", "STATE_ID": "6491", "GlobalID": "{1F5BC855-943E-4291-B8DD-363B63C2AFBE}", "created_us": "SDE", "created_da": "2015-12-30T22:18:28.000Z", "last_edite": "SDE", "last_edi_1": "2015-12-30T22:18:28.000Z" }, "geometry": { "type": "Point", "coordinates": [ -84.274021586002831, 33.694632505004556 ] } },
{ "type": "Feature", "properties": { "OBJECTID": 612, "ID": "10471247", "Asset": "Hospital", "Name": "PIEDMONT NEWNAN HOSPITAL", "TELEPHONE": "770-400-1000", "ADDRESS": "745 POPLAR RD", "ADDRESS2": null, "CITY": "NEWNAN", "STATE": "GA", "ZIP": "30265", "ZIPP4": null, "COUNTY": "COWETA", "FIPS": "13077", "DIRECTIONS": null, "EMERGTITLE": null, "EMERGTEL": null, "EMERGEXT": null, "CONTDATE": null, "CONTHOW": null, "GEODATE": null, "GEOHOW": null, "NAICSCODE": null, "NAICSDESCR": null, "GEOLINKID": null, "X": null, "Y": null, "ST_VENDOR": null, "ST_VERSION": null, "GEOPREC": null, "PHONELOC": null, "QC_QA": null, "STATE_ID": null, "GlobalID": "{ACB209C5-00FC-4092-8AB5-37D42219B553}", "created_us": "SDE", "created_da": "2016-10-21T22:48:24.000Z", "last_edite": "SDE", "last_edi_1": "2016-10-21T22:48:24.000Z" }, "geometry": { "type": "Point", "coordinates": [ -84.754952713002879, 33.357332884004549 ] } },
{ "type": "Feature", "properties": { "OBJECTID": 613, "ID": "10471248", "Asset": "Hospital", "Name": "CANCER TREATMENT CENTERS OF AMERICA AT SOUTHEASTERN REGIONAL MEDICAL CENTER", "TELEPHONE": "700-400-6000", "ADDRESS": "600 CELEBRATE  LIFE PKWY", "ADDRESS2": null, "CITY": "NEWNAN", "STATE": "GA", "ZIP": "30265", "ZIPP4": null, "COUNTY": "COWETA", "FIPS": "13077", "DIRECTIONS": null, "EMERGTITLE": null, "EMERGTEL": null, "EMERGEXT": null, "CONTDATE": null, "CONTHOW": null, "GEODATE": null, "GEOHOW": null, "NAICSCODE": null, "NAICSDESCR": null, "GEOLINKID": null, "X": null, "Y": null, "ST_VENDOR": null, "ST_VERSION": null, "GEOPREC": null, "PHONELOC": null, "QC_QA": null, "STATE_ID": null, "GlobalID": "{84CE5CA0-E362-4C82-8D5E-C9DF23C70BF0}", "created_us": "SDE", "created_da": "2016-10-21T22:48:24.000Z", "last_edite": "SDE", "last_edi_1": "2016-10-21T22:48:24.000Z" }, "geometry": { "type": "Point", "coordinates": [ -84.757712888002871, 33.383863875004515 ] } },
{ "type": "Feature", "properties": { "OBJECTID": 614, "ID": "10471249", "Asset": "Hospital", "Name": "HEALTHSOUTH REHABILITATION HOSPITAL OF NEWNAN", "TELEPHONE": "678-552-6200", "ADDRESS": "2101 NEWNAN CROSSING BLVD", "ADDRESS2": null, "CITY": "NEWNAN", "STATE": "GA", "ZIP": "30265", "ZIPP4": null, "COUNTY": "COWETA", "FIPS": "13077", "DIRECTIONS": null, "EMERGTITLE": null, "EMERGTEL": null, "EMERGEXT": null, "CONTDATE": null, "CONTHOW": null, "GEODATE": null, "GEOHOW": null, "NAICSCODE": null, "NAICSDESCR": null, "GEOLINKID": null, "X": null, "Y": null, "ST_VENDOR": null, "ST_VERSION": null, "GEOPREC": null, "PHONELOC": null, "QC_QA": null, "STATE_ID": null, "GlobalID": "{1ACD75F2-7C2A-4FD3-BDE6-EB0AE6DD740C}", "created_us": "SDE", "created_da": "2016-10-21T22:48:24.000Z", "last_edite": "SDE", "last_edi_1": "2016-10-21T22:48:24.000Z" }, "geometry": { "type": "Point", "coordinates": [ -84.751702378002847, 33.363647045004527 ] } }
]
}
